{
  "routeId": "533",
  "directions": [
    {
      "id": "from_ladozhskaya",
      "name": "С Ладожской",
      "stops": [
        { "id": "ladozhskaya", "name": "м. Ладожская", "lat": 59.93274, "lng": 30.441484 },
        { "id": "peredovikov", "name": "Улица Передовиков", "lat": 59.941857, "lng": 30.466825 },
        { "id": "industrialnyy", "name": "Индустриальный проспект", "lat": 59.94485, "lng": 30.479298 },
        { "id": "osipenko", "name": "Улица Осипенко", "lat": 59.944982, "lng": 30.486477 },
        { "id": "nastavnikov", "name": "Проспект Наставников", "lat": 59.945049, "lng": 30.492077 },
        { "id": "kosygina", "name": "Проспект Косыгина", "lat": 59.945202, "lng": 30.498072 },
        { "id": "zanevka", "name": "Дорога на Заневку", "lat": 59.945606, "lng": 30.523168 },
        { "id": "koltsevaya", "name": "Кольцевая улица", "lat": 59.94953, "lng": 30.555037 },
        { "id": "zemlyanino", "name": "ЖК Землянино — Бульвар Славы", "lat": 59.957801, "lng": 30.571404 },
        { "id": "lesnaya", "name": "Лесная улица", "lat": 59.955961, "lng": 30.577547 },
        { "id": "tsvetnoy", "name": "Цветной бульвар", "lat": 59.955906, "lng": 30.587282 },
        { "id": "yasnaya", "name": "Ясная улица", "lat": 59.958107, "lng": 30.598557 },
        { "id": "yasno_yanino", "name": "ЖК Ясно-Янино", "lat": 59.960017, "lng": 30.602121 }
      ]
    },
    {
      "id": "from_yanino",
      "name": "Из Янино",
      "stops": [
        { "id": "yasnaya_2", "name": "Ясная улица", "lat": 59.960416, "lng": 30.60249 },
        { "id": "yasno_yanino", "name": "ЖК Ясно-Янино", "lat": 59.959105, "lng": 30.600649 },
        { "id": "yasnaya", "name": "Ясная улица", "lat": 59.957759, "lng": 30.597384 },
        { "id": "tsvetnoy", "name": "Цветной бульвар", "lat": 59.956015, "lng": 30.587168 },
        { "id": "lesnaya", "name": "Лесная улица", "lat": 59.956374, "lng": 30.576675 },
        { "id": "zemlyanino", "name": "ЖК Землянино — Бульвар Славы", "lat": 59.958155, "lng": 30.569182 },
        { "id": "koltsevaya", "name": "Кольцевая улица", "lat": 59.950009, "lng": 30.556227 },
        { "id": "zanevka", "name": "Дорога на Заневку", "lat": 59.946003, "lng": 30.522511 },
        { "id": "kosygina", "name": "Проспект Косыгина", "lat": 59.945485, "lng": 30.497319 },
        { "id": "nastavnikov", "name": "Проспект Наставников", "lat": 59.945371, "lng": 30.489855 },
        { "id": "osipenko", "name": "Улица Осипенко", "lat": 59.94525, "lng": 30.483758 },
        { "id": "industrialnyy", "name": "Индустриальный проспект", "lat": 59.944889, "lng": 30.477083 },
        { "id": "peredovikov", "name": "Улица Передовиков", "lat": 59.94163, "lng": 30.464601 },
        { "id": "ladozhskaya", "name": "м. Ладожская", "lat": 59.932853, "lng": 30.44068 }
      ]
    }
  ]
}
